[
    {
        "name": "故宫博物院",
        "province": "北京市",
        "year": "2007",
        "location": {
            "lng": 116.4034138534206,
            "lat": 39.924091367210636
        },
        "id": 1
    },
    {
        "name": "天坛公园",
        "province": "北京市",
        "year": "2007",
        "location": {
            "lng": 116.41724596166326,
            "lat": 39.8882429566928
        },
        "id": 2
    },
    {
        "name": "颐和园",
        "province": "北京市",
        "year": "2007",
        "location": {
            "lng": 116.27874899101799,
            "lat": 40.00486903860049
        },
        "id": 3
    },
    {
        "name": "北京八达岭－慕田峪长城旅游区",
        "province": "北京市",
        "year": "2007",
        "location": {
            "lng": 115.98449143497197,
            "lat": 40.36795086400071
        },
        "id": 4
    },
    {
        "name": "北京市明十三陵景区",
        "province": "北京市",
        "year": "2011",
        "location": {
            "lng": 116.23184603491715,
            "lat": 40.26354404731115
        },
        "id": 5
    },
    {
        "name": "恭王府景区",
        "province": "北京市",
        "year": "2012",
        "location": {
            "lng": 116.39276258575454,
            "lat": 39.94286149839493
        },
        "id": 6
    },
    {
        "name": "北京市奥林匹克公园",
        "province": "北京市",
        "year": "2012",
        "location": {
            "lng": 116.39957647194308,
            "lat": 40.00722767783667
        },
        "id": 7
    },
    {
        "name": "北京市海淀区圆明园景区",
        "province": "北京市",
        "year": "2019",
        "location": {
            "lng": 116.29714197599588,
            "lat": 40.027180321324096
        },
        "id": 8
    },
    {
        "name": "天津古文化街旅游区（津门故里）",
        "province": "天津市",
        "year": "2007",
        "location": {
            "lng": 117.19918398774259,
            "lat": 39.14953207847352
        },
        "id": 9
    },
    {
        "name": "天津盘山风景名胜区",
        "province": "天津市",
        "year": "2007",
        "location": {
            "lng": 117.28891320987887,
            "lat": 40.102981745769824
        },
        "id": 10
    },
    {
        "name": "承德避暑山庄及周围寺庙景区",
        "province": "河北省",
        "year": "2007",
        "location": {
            "lng": 117.94120679662213,
            "lat": 41.00147552715324
        },
        "id": 11
    },
    {
        "name": "保定市安新白洋淀景区",
        "province": "河北省",
        "year": "2007",
        "location": {
            "lng": 115.99644498619688,
            "lat": 38.94219410571054
        },
        "id": 12
    },
    {
        "name": "河北保定野三坡景区",
        "province": "河北省",
        "year": "2011",
        "location": {
            "lng": 115.3923380341282,
            "lat": 39.67410509191561
        },
        "id": 13
    },
    {
        "name": "河北省石家庄市西柏坡景区",
        "province": "河北省",
        "year": "2011",
        "location": {
            "lng": 113.9506480601479,
            "lat": 38.345934835317586
        },
        "id": 14
    },
    {
        "name": "唐山市清东陵景区",
        "province": "河北省",
        "year": "2015",
        "location": {
            "lng": 117.69062636105535,
            "lat": 40.180983876570025
        },
        "id": 15
    },
    {
        "name": "邯郸市娲皇宫景区",
        "province": "河北省",
        "year": "2015",
        "location": {
            "lng": 113.615183592874,
            "lat": 36.639737952148685
        },
        "id": 16
    },
    {
        "name": "河北省邯郸市广府古城景区",
        "province": "河北省",
        "year": "2017",
        "location": {
            "lng": 114.73672718479769,
            "lat": 36.707347087487015
        },
        "id": 17
    },
    {
        "name": "河北省保定市白石山景区",
        "province": "河北省",
        "year": "2017",
        "location": {
            "lng": 114.70919519888348,
            "lat": 39.2229306452524
        },
        "id": 18
    },
    {
        "name": "秦皇岛市山海关景区",
        "province": "河北省",
        "year": "2007/2018",
        "location": {
            "lng": 119.76738536277786,
            "lat": 40.016545578868325
        },
        "id": 19
    },
    {
        "name": "河北省保定市清西陵景区",
        "province": "河北省",
        "year": "2019",
        "location": {
            "lng": 115.35120597228457,
            "lat": 39.34728810424819
        },
        "id": 20
    },
    {
        "name": "河北省承德市金山岭长城景区",
        "province": "河北省",
        "year": "2020",
        "location": {
            "lng": 117.2540036204723,
            "lat": 40.70610788520752
        },
        "id": 21
    },
    {
        "name": "大同市云冈石窟",
        "province": "山西省",
        "year": "2007",
        "location": {
            "lng": 113.14429103606861,
            "lat": 40.11927323759733
        },
        "id": 22
    },
    {
        "name": "忻州市五台山风景名胜区",
        "province": "山西省",
        "year": "2007",
        "location": {
            "lng": 113.59570814975659,
            "lat": 38.976197885134965
        },
        "id": 23
    },
    {
        "name": "山西晋城皇城相府生态文化旅游区",
        "province": "山西省",
        "year": "2011",
        "location": {
            "lng": 112.58946171071638,
            "lat": 35.519938875158715
        },
        "id": 24
    },
    {
        "name": "晋中市介休绵山景区",
        "province": "山西省",
        "year": "2013",
        "location": {
            "lng": 111.99922702114662,
            "lat": 36.89531691151245
        },
        "id": 25
    },
    {
        "name": "晋中市平遥古城景区",
        "province": "山西省",
        "year": "2015",
        "location": {
            "lng": 112.19022033698114,
            "lat": 37.20953513508642
        },
        "id": 26
    },
    {
        "name": "山西省忻州市雁门关景区",
        "province": "山西省",
        "year": "2017",
        "location": {
            "lng": 112.88945101543462,
            "lat": 39.18997476695484
        },
        "id": 27
    },
    {
        "name": "山西省临汾市洪洞大槐树寻根祭祖园景区",
        "province": "山西省",
        "year": "2018",
        "location": {
            "lng": 111.68235505250442,
            "lat": 36.27708661110886
        },
        "id": 28
    },
    {
        "name": "山西省长治市壶关太行山大峡谷八泉峡景区",
        "province": "山西省",
        "year": "2019",
        "location": {
            "lng": 113.58431422232913,
            "lat": 35.92352723369793
        },
        "id": 29
    },
    {
        "name": "山西省临汾市云丘山景区",
        "province": "山西省",
        "year": "2020",
        "location": {
            "lng": 111.02745602046001,
            "lat": 35.75963686189954
        },
        "id": 30
    },
    {
        "name": "内蒙古鄂尔多斯响沙湾旅游景区",
        "province": "内蒙古自治区",
        "year": "2011",
        "location": {
            "lng": 109.96292168094662,
            "lat": 40.24991522639244
        },
        "id": 31
    },
    {
        "name": "内蒙古鄂尔多斯成吉思汗陵旅游区",
        "province": "内蒙古自治区",
        "year": "2011",
        "location": {
            "lng": 109.81773404103248,
            "lat": 39.36698511093963
        },
        "id": 32
    },
    {
        "name": "内蒙古自治区满洲里市中俄边境旅游区",
        "province": "内蒙古自治区",
        "year": "2016",
        "location": {
            "lng": 117.36689096924053,
            "lat": 49.635706335620775
        },
        "id": 33
    },
    {
        "name": "内蒙古自治区阿尔山·柴河旅游景区",
        "province": "内蒙古自治区",
        "year": "2017",
        "location": {
            "lng": 120.29519930797882,
            "lat": 46.97245353253782
        },
        "id": 34
    },
    {
        "name": "内蒙古自治区赤峰市阿斯哈图石阵旅游区",
        "province": "内蒙古自治区",
        "year": "2018",
        "location": {
            "lng": 118.8955203975195,
            "lat": 42.2616861034116
        },
        "id": 35
    },
    {
        "name": "内蒙古自治区阿拉善盟胡杨林旅游区",
        "province": "内蒙古自治区",
        "year": "2019",
        "location": {
            "lng": 101.08703595562682,
            "lat": 41.967674877581075
        },
        "id": 36
    },
    {
        "name": "沈阳市植物园",
        "province": "辽宁省",
        "year": "2007",
        "location": {
            "lng": 123.64598999032403,
            "lat": 41.86342386963719
        },
        "id": 37
    },
    {
        "name": "大连老虎滩海洋公园.老虎滩极地馆",
        "province": "辽宁省",
        "year": "2007",
        "location": {
            "lng": 121.68367600887822,
            "lat": 38.88485900886638
        },
        "id": 38
    },
    {
        "name": "辽宁大连金石滩景区",
        "province": "辽宁省",
        "year": "2011",
        "location": {
            "lng": 122.02214261316644,
            "lat": 39.09689150529119
        },
        "id": 39
    },
    {
        "name": "本溪市本溪水洞景区",
        "province": "辽宁省",
        "year": "2015",
        "location": {
            "lng": 124.0740987709446,
            "lat": 41.30956622857548
        },
        "id": 40
    },
    {
        "name": "辽宁省鞍山市千山景区",
        "province": "辽宁省",
        "year": "2017",
        "location": {
            "lng": 123.12167259975425,
            "lat": 41.093252040941366
        },
        "id": 41
    },
    {
        "name": "辽宁省盘锦市红海滩风景廊道景区",
        "province": "辽宁省",
        "year": "2019",
        "location": {
            "lng": 121.85198297838043,
            "lat": 40.90783995506309
        },
        "id": 42
    },
    {
        "name": "长白山景区",
        "province": "吉林省",
        "year": "2007",
        "location": {
            "lng": 116.19820413424628,
            "lat": 39.87900196694424
        },
        "id": 43
    },
    {
        "name": "长春市伪满皇宫博物院",
        "province": "吉林省",
        "year": "2007",
        "location": {
            "lng": 125.35528113335198,
            "lat": 43.911459556196036
        },
        "id": 44
    },
    {
        "name": "吉林长春净月潭景区",
        "province": "吉林省",
        "year": "2011",
        "location": {
            "lng": 125.48286989035901,
            "lat": 43.78510774243151
        },
        "id": 45
    },
    {
        "name": "长春市长影世纪城旅游区",
        "province": "吉林省",
        "year": "2015",
        "location": {
            "lng": 125.30246166767078,
            "lat": 43.868530519495565
        },
        "id": 46
    },
    {
        "name": "敦化市六鼎山文化旅游区",
        "province": "吉林省",
        "year": "2015",
        "location": {
            "lng": 128.25120699572605,
            "lat": 43.32978205896142
        },
        "id": 47
    },
    {
        "name": "吉林省长春市世界雕塑公园旅游景区",
        "province": "吉林省",
        "year": "2017",
        "location": {
            "lng": 125.34027799404653,
            "lat": 43.82826212986066
        },
        "id": 48
    },
    {
        "name": "吉林省通化市高句丽文物古迹旅游景区",
        "province": "吉林省",
        "year": "2019",
        "location": {
            "lng": 126.16860505564443,
            "lat": 41.17350696086367
        },
        "id": 49
    },
    {
        "name": "哈尔滨市太阳岛景区",
        "province": "黑龙江省",
        "year": "2007",
        "location": {
            "lng": 126.56856704036322,
            "lat": 45.814528206923335
        },
        "id": 50
    },
    {
        "name": "黑龙江黑河五大连池景区",
        "province": "黑龙江省",
        "year": "2011",
        "location": {
            "lng": 126.16895709187474,
            "lat": 48.69918338141178
        },
        "id": 51
    },
    {
        "name": "黑龙江牡丹江镜泊湖景区",
        "province": "黑龙江省",
        "year": "2011",
        "location": {
            "lng": 128.95936027331845,
            "lat": 44.06652172073304
        },
        "id": 52
    },
    {
        "name": "伊春市汤旺河林海奇石景区",
        "province": "黑龙江省",
        "year": "2013",
        "location": {
            "lng": 129.46425197721766,
            "lat": 48.46737284139298
        },
        "id": 53
    },
    {
        "name": "漠河北极村旅游区",
        "province": "黑龙江省",
        "year": "2015",
        "location": {
            "lng": 122.36612686966573,
            "lat": 53.48736253310833
        },
        "id": 54
    },
    {
        "name": "黑龙江省虎林市虎头旅游景区",
        "province": "黑龙江省",
        "year": "2019",
        "location": {
            "lng": 133.67489475518792,
            "lat": 45.99137547915245
        },
        "id": 55
    },
    {
        "name": "上海东方明珠广播电视塔",
        "province": "上海市",
        "year": "2007",
        "location": {
            "lng": 121.50637870800159,
            "lat": 31.245413754402072
        },
        "id": 56
    },
    {
        "name": "上海野生动物园",
        "province": "上海市",
        "year": "2007",
        "location": {
            "lng": 121.7282556774386,
            "lat": 31.0612437702009
        },
        "id": 57
    },
    {
        "name": "上海科技馆",
        "province": "上海市",
        "year": "2010",
        "location": {
            "lng": 121.54782293100993,
            "lat": 31.224356111557636
        },
        "id": 58
    },
    {
        "name": "上海市中国共产党一大·二大·四大纪念馆景区",
        "province": "上海市",
        "year": "2021",
        "location": {
            "lng": 121.49149998400927,
            "lat": 31.260903894064448
        },
        "id": 59
    },
    {
        "name": "苏州园林（拙政园、虎丘山、留园）",
        "province": "江苏省",
        "year": "2007",
        "location": {
            "lng": 120.63592628533543,
            "lat": 31.33026503301011
        },
        "id": 60
    },
    {
        "name": "苏州市周庄古镇景区",
        "province": "江苏省",
        "year": "2007",
        "location": {
            "lng": 120.85826754188221,
            "lat": 31.119926380407996
        },
        "id": 61
    },
    {
        "name": "南京市钟山风景名胜区-中山陵园风景区",
        "province": "江苏省",
        "year": "2007",
        "location": {
            "lng": 118.85940636008516,
            "lat": 32.06929138716847
        },
        "id": 62
    },
    {
        "name": "中央电视台无锡影视基地三国水浒景区",
        "province": "江苏省",
        "year": "2007",
        "location": {
            "lng": 120.23963193547846,
            "lat": 31.48350211450478
        },
        "id": 63
    },
    {
        "name": "无锡市灵山景区",
        "province": "江苏省",
        "year": "2009",
        "location": {
            "lng": 120.1087516972523,
            "lat": 31.435122762059194
        },
        "id": 64
    },
    {
        "name": "苏州市同里古镇景区",
        "province": "江苏省",
        "year": "2010",
        "location": {
            "lng": 120.73010863036798,
            "lat": 31.160913725956824
        },
        "id": 65
    },
    {
        "name": "南京市夫子庙-秦淮风光带景区",
        "province": "江苏省",
        "year": "2010",
        "location": {
            "lng": 118.79595616733779,
            "lat": 32.026195876721886
        },
        "id": 66
    },
    {
        "name": "常州市环球恐龙城休闲旅游区",
        "province": "江苏省",
        "year": "2010",
        "location": {
            "lng": 120.00606010626814,
            "lat": 31.828145565194255
        },
        "id": 67
    },
    {
        "name": "扬州市瘦西湖风景区",
        "province": "江苏省",
        "year": "2010",
        "location": {
            "lng": 119.42809213775936,
            "lat": 32.41477989773169
        },
        "id": 68
    },
    {
        "name": "南通市濠河景区",
        "province": "江苏省",
        "year": "2012",
        "location": {
            "lng": 120.87347774060771,
            "lat": 32.02037008096489
        },
        "id": 69
    },
    {
        "name": "江苏省姜堰市溱湖旅游景区",
        "province": "江苏省",
        "year": "2012",
        "location": {
            "lng": 120.09290415076748,
            "lat": 32.61841947861801
        },
        "id": 70
    },
    {
        "name": "苏州市金鸡湖景区",
        "province": "江苏省",
        "year": "2012",
        "location": {
            "lng": 120.70779561980565,
            "lat": 31.310429957852115
        },
        "id": 71
    },
    {
        "name": "镇江市金山·焦山·北固山旅游景区",
        "province": "江苏省",
        "year": "2012",
        "location": {
            "lng": 119.46394611574856,
            "lat": 32.22239114060294
        },
        "id": 72
    },
    {
        "name": "无锡市鼋头渚景区",
        "province": "江苏省",
        "year": "2012",
        "location": {
            "lng": 120.23341296643288,
            "lat": 31.529773954315807
        },
        "id": 73
    },
    {
        "name": "苏州市吴中太湖旅游区",
        "province": "江苏省",
        "year": "2013",
        "location": {
            "lng": 120.45101193553973,
            "lat": 31.224798857528445
        },
        "id": 74
    },
    {
        "name": "苏州市沙家浜·虞山尚湖旅游区",
        "province": "江苏省",
        "year": "2013",
        "location": {
            "lng": 120.69271289063201,
            "lat": 31.646470762860652
        },
        "id": 75
    },
    {
        "name": "常州市天目湖景区",
        "province": "江苏省",
        "year": "2013",
        "location": {
            "lng": 119.45221092205786,
            "lat": 31.324345909516687
        },
        "id": 76
    },
    {
        "name": "镇江市句容茅山景区",
        "province": "江苏省",
        "year": "2014",
        "location": {
            "lng": 119.31040180916675,
            "lat": 31.791362985723257
        },
        "id": 77
    },
    {
        "name": "周恩来故里旅游景区",
        "province": "江苏省",
        "year": "2015",
        "location": {
            "lng": 119.16058457214585,
            "lat": 33.51877474405627
        },
        "id": 78
    },
    {
        "name": "大丰中华麋鹿园景区",
        "province": "江苏省",
        "year": "2015",
        "location": {
            "lng": 120.82187493990924,
            "lat": 32.98999864135623
        },
        "id": 79
    },
    {
        "name": "江苏省徐州市云龙湖景区",
        "province": "江苏省",
        "year": "2016",
        "location": {
            "lng": 117.15957266729681,
            "lat": 34.24433844842318
        },
        "id": 80
    },
    {
        "name": "江苏省连云港花果山景区",
        "province": "江苏省",
        "year": "2016",
        "location": {
            "lng": 119.28098293252883,
            "lat": 34.64722556154336
        },
        "id": 81
    },
    {
        "name": "江苏省常州市中国春秋淹城旅游区",
        "province": "江苏省",
        "year": "2017",
        "location": {
            "lng": 119.9303060026117,
            "lat": 31.708146958468546
        },
        "id": 82
    },
    {
        "name": "江苏省无锡市惠山古镇景区",
        "province": "江苏省",
        "year": "2019",
        "location": {
            "lng": 120.28287187120125,
            "lat": 31.588093860706753
        },
        "id": 83
    },
    {
        "name": "江苏省宿迁市洪泽湖湿地景区",
        "province": "江苏省",
        "year": "2020",
        "location": {
            "lng": 118.33948006650927,
            "lat": 33.26843605176566
        },
        "id": 84
    },
    {
        "name": "杭州市西湖风景名胜区",
        "province": "浙江省",
        "year": "2007",
        "location": {
            "lng": 120.12792000971587,
            "lat": 30.228932114135855
        },
        "id": 85
    },
    {
        "name": "温州市雁荡山风景名胜区",
        "province": "浙江省",
        "year": "2007",
        "location": {
            "lng": 121.04029647029994,
            "lat": 28.379665391060126
        },
        "id": 86
    },
    {
        "name": "舟山市普陀山风景名胜区",
        "province": "浙江省",
        "year": "2007",
        "location": {
            "lng": 122.3976078163247,
            "lat": 30.00797589453144
        },
        "id": 87
    },
    {
        "name": "杭州市千岛湖风景名胜区",
        "province": "浙江省",
        "year": "2010",
        "location": {
            "lng": 119.08472795540509,
            "lat": 29.61278631334258
        },
        "id": 88
    },
    {
        "name": "嘉兴市桐乡乌镇古镇旅游区",
        "province": "浙江省",
        "year": "2010",
        "location": {
            "lng": 120.49826298502566,
            "lat": 30.75420184672951
        },
        "id": 89
    },
    {
        "name": "宁波市奉化溪口-滕头旅游景区",
        "province": "浙江省",
        "year": "2010",
        "location": {
            "lng": 121.2656169141739,
            "lat": 29.690326125294412
        },
        "id": 90
    },
    {
        "name": "金华市东阳横店影视城景区",
        "province": "浙江省",
        "year": "2010",
        "location": {
            "lng": 120.32337573116695,
            "lat": 29.143633194013447
        },
        "id": 91
    },
    {
        "name": "浙江省嘉兴市南湖旅游区",
        "province": "浙江省",
        "year": "2011",
        "location": {
            "lng": 120.76508011302418,
            "lat": 30.757469484627997
        },
        "id": 92
    },
    {
        "name": "浙江省杭州西溪湿地旅游区",
        "province": "浙江省",
        "year": "2012",
        "location": {
            "lng": 120.15605664506884,
            "lat": 30.28108347148038
        },
        "id": 93
    },
    {
        "name": "浙江省绍兴市鲁迅故里沈园景区",
        "province": "浙江省",
        "year": "2012",
        "location": {
            "lng": 120.59642593151736,
            "lat": 29.995267501876295
        },
        "id": 94
    },
    {
        "name": "衢州市开化根宫佛国文化旅游景区",
        "province": "浙江省",
        "year": "2013",
        "location": {
            "lng": 118.39952090415532,
            "lat": 29.139381990368044
        },
        "id": 95
    },
    {
        "name": "湖州市南浔古镇景区",
        "province": "浙江省",
        "year": "2015",
        "location": {
            "lng": 120.43539749933473,
            "lat": 30.87453565856654
        },
        "id": 96
    },
    {
        "name": "台州市天台山景区",
        "province": "浙江省",
        "year": "2015",
        "location": {
            "lng": 121.04203999146367,
            "lat": 29.162747020909947
        },
        "id": 97
    },
    {
        "name": "台州市神仙居景区",
        "province": "浙江省",
        "year": "2015",
        "location": {
            "lng": 120.60954990552214,
            "lat": 28.69458185131342
        },
        "id": 98
    },
    {
        "name": "浙江省嘉兴市西塘古镇旅游景区",
        "province": "浙江省",
        "year": "2017",
        "location": {
            "lng": 120.90463852146003,
            "lat": 30.953034986830747
        },
        "id": 99
    },
    {
        "name": "浙江省衢州市江郎山·廿八都景区",
        "province": "浙江省",
        "year": "2017",
        "location": {
            "lng": 118.48975371633068,
            "lat": 28.29801031243237
        },
        "id": 100
    },
    {
        "name": "浙江省宁波市天一阁·月湖景区",
        "province": "浙江省",
        "year": "2018",
        "location": {
            "lng": 121.55036493870196,
            "lat": 29.87437230325573
        },
        "id": 101
    },
    {
        "name": "浙江省丽水市缙云仙都景区",
        "province": "浙江省",
        "year": "2019",
        "location": {
            "lng": 120.11908102605257,
            "lat": 28.706476008654246
        },
        "id": 102
    },
    {
        "name": "浙江省温州市刘伯温故里景区",
        "province": "浙江省",
        "year": "2020",
        "location": {
            "lng": 119.94031095335137,
            "lat": 27.85259702993187
        },
        "id": 103
    },
    {
        "name": "黄山市黄山风景区",
        "province": "安徽省",
        "year": "2007",
        "location": {
            "lng": 118.16808939385238,
            "lat": 30.130390011625334
        },
        "id": 104
    },
    {
        "name": "池州市九华山风景区",
        "province": "安徽省",
        "year": "2007",
        "location": {
            "lng": 117.83051139337464,
            "lat": 30.484894146822416
        },
        "id": 105
    },
    {
        "name": "安徽省安庆市天柱山风景区",
        "province": "安徽省",
        "year": "2011",
        "location": {
            "lng": 116.46671196304514,
            "lat": 30.741913821427772
        },
        "id": 106
    },
    {
        "name": "安徽省黄山市皖南古村落—西递宏村",
        "province": "安徽省",
        "year": "2011",
        "location": {
            "lng": 117.97953226650037,
            "lat": 29.898546836174678
        },
        "id": 107
    },
    {
        "name": "六安市天堂寨旅游景区",
        "province": "安徽省",
        "year": "2012",
        "location": {
            "lng": 115.78528399301896,
            "lat": 31.141124864746303
        },
        "id": 108
    },
    {
        "name": "安徽省宣城市绩溪龙川景区",
        "province": "安徽省",
        "year": "2012",
        "location": {
            "lng": 118.6766019972796,
            "lat": 30.0830122267812
        },
        "id": 109
    },
    {
        "name": "阜阳市颍上八里河景区",
        "province": "安徽省",
        "year": "2013",
        "location": {
            "lng": 116.31434380786756,
            "lat": 32.5677373040912
        },
        "id": 110
    },
    {
        "name": "黄山市古徽州文化旅游区",
        "province": "安徽省",
        "year": "2014",
        "location": {
            "lng": 118.34473396976428,
            "lat": 29.83831839147047
        },
        "id": 111
    },
    {
        "name": "合肥市三河古镇景区",
        "province": "安徽省",
        "year": "2015",
        "location": {
            "lng": 117.25130618868695,
            "lat": 31.517927460309327
        },
        "id": 112
    },
    {
        "name": "安徽省芜湖市方特旅游区",
        "province": "安徽省",
        "year": "2016",
        "location": {
            "lng": 118.38253899367179,
            "lat": 31.38341042164552
        },
        "id": 113
    },
    {
        "name": "安徽省六安市万佛湖景区",
        "province": "安徽省",
        "year": "2016",
        "location": {
            "lng": 116.78350856385507,
            "lat": 31.31060280554158
        },
        "id": 114
    },
    {
        "name": "安徽省马鞍山市长江采石矶文化生态旅游区",
        "province": "安徽省",
        "year": "2020",
        "location": {
            "lng": 118.4657271144066,
            "lat": 31.656742192287243
        },
        "id": 115
    },
    {
        "name": "厦门市鼓浪屿风景名胜区",
        "province": "福建省",
        "year": "2007",
        "location": {
            "lng": 118.07316507519934,
            "lat": 24.450528348021404
        },
        "id": 116
    },
    {
        "name": "南平市武夷山风景名胜区",
        "province": "福建省",
        "year": "2007",
        "location": {
            "lng": 117.9630419824286,
            "lat": 27.6681080045521
        },
        "id": 117
    },
    {
        "name": "福建省三明市泰宁风景旅游区",
        "province": "福建省",
        "year": "2011",
        "location": {
            "lng": 117.06326136526994,
            "lat": 26.84924600061144
        },
        "id": 118
    },
    {
        "name": "福建省土楼（永定·南靖）旅游",
        "province": "福建省",
        "year": "2011",
        "location": {
            "lng": 117.01252848364409,
            "lat": 24.667552053512594
        },
        "id": 119
    },
    {
        "name": "宁德市白水洋-鸳鸯溪旅游区",
        "province": "福建省",
        "year": "2012",
        "location": {
            "lng": 119.12251499700874,
            "lat": 27.05883420408184
        },
        "id": 120
    },
    {
        "name": "泉州市清源山景区",
        "province": "福建省",
        "year": "2012",
        "location": {
            "lng": 118.61832252460664,
            "lat": 24.951064361326633
        },
        "id": 121
    },
    {
        "name": "宁德市福鼎太姥山旅游区",
        "province": "福建省",
        "year": "2013",
        "location": {
            "lng": 120.25802625110141,
            "lat": 27.10589219843609
        },
        "id": 122
    },
    {
        "name": "福州市三坊七巷景区",
        "province": "福建省",
        "year": "2015",
        "location": {
            "lng": 119.30266073476744,
            "lat": 26.09296941141622
        },
        "id": 123
    },
    {
        "name": "龙岩市古田旅游区",
        "province": "福建省",
        "year": "2015",
        "location": {
            "lng": 116.8303726974769,
            "lat": 25.22922036077774
        },
        "id": 124
    },
    {
        "name": "福建省莆田市湄洲岛妈祖文化旅游区",
        "province": "福建省",
        "year": "2020",
        "location": {
            "lng": 119.1354889539934,
            "lat": 25.06937817358046
        },
        "id": 125
    },
    {
        "name": "江西省庐山风景名胜区",
        "province": "江西省",
        "year": "2007",
        "location": {
            "lng": 116.00108229332403,
            "lat": 29.561544033673997
        },
        "id": 126
    },
    {
        "name": "吉安市井冈山风景旅游区",
        "province": "江西省",
        "year": "2007",
        "location": {
            "lng": 114.14378903000217,
            "lat": 26.63616696263306
        },
        "id": 127
    },
    {
        "name": "江西省上饶市三清山旅游景区",
        "province": "江西省",
        "year": "2011",
        "location": {
            "lng": 117.98769759409173,
            "lat": 28.453602605955084
        },
        "id": 128
    },
    {
        "name": "江西省鹰潭市龙虎山旅游景区",
        "province": "江西省",
        "year": "2012",
        "location": {
            "lng": 116.98789227537999,
            "lat": 28.125406099390016
        },
        "id": 129
    },
    {
        "name": "上饶市婺源江湾景区",
        "province": "江西省",
        "year": "2013",
        "location": {
            "lng": 118.05801254769257,
            "lat": 29.374195726637847
        },
        "id": 130
    },
    {
        "name": "景德镇古窑民俗博览区",
        "province": "江西省",
        "year": "2013",
        "location": {
            "lng": 112.8492024226942,
            "lat": 28.42323582852412
        },
        "id": 131
    },
    {
        "name": "瑞金市共和国摇篮旅游区",
        "province": "江西省",
        "year": "2015",
        "location": {
            "lng": 116.0334206628587,
            "lat": 25.891666273953316
        },
        "id": 132
    },
    {
        "name": "宜春市明月山旅游区",
        "province": "江西省",
        "year": "2015",
        "location": {
            "lng": 114.29910201025125,
            "lat": 27.605429992081888
        },
        "id": 133
    },
    {
        "name": "江西省抚州市大觉山景区",
        "province": "江西省",
        "year": "2017",
        "location": {
            "lng": 117.15012400466463,
            "lat": 27.704040955729994
        },
        "id": 134
    },
    {
        "name": "江西省上饶市龟峰景区",
        "province": "江西省",
        "year": "2017",
        "location": {
            "lng": 117.43295800964319,
            "lat": 28.323365029295857
        },
        "id": 135
    },
    {
        "name": "江西省南昌市滕王阁旅游区",
        "province": "江西省",
        "year": "2018",
        "location": {
            "lng": 115.8886050113041,
            "lat": 28.68371302593748
        },
        "id": 136
    },
    {
        "name": "江西省萍乡市武功山景区",
        "province": "江西省",
        "year": "2019",
        "location": {
            "lng": 114.13594403815557,
            "lat": 27.495318953024807
        },
        "id": 137
    },
    {
        "name": "江西省九江市庐山西海景区",
        "province": "江西省",
        "year": "2020",
        "location": {
            "lng": 116.05142593917256,
            "lat": 29.4545391657173
        },
        "id": 138
    },
    {
        "name": "泰安市泰山景区",
        "province": "山东省",
        "year": "2007",
        "location": {
            "lng": 117.14141108581828,
            "lat": 36.199444601195346
        },
        "id": 139
    },
    {
        "name": "烟台市蓬莱阁旅游区(三仙山-八仙过海)",
        "province": "山东省",
        "year": "2007",
        "location": {
            "lng": 120.7827091789964,
            "lat": 37.831198862462536
        },
        "id": 140
    },
    {
        "name": "济宁市曲阜明故城（三孔）旅游区",
        "province": "山东省",
        "year": "2007",
        "location": {
            "lng": 116.99712696158609,
            "lat": 35.60298989920293
        },
        "id": 141
    },
    {
        "name": "山东青岛崂山景区",
        "province": "山东省",
        "year": "2011",
        "location": {
            "lng": 120.62565124024287,
            "lat": 36.190659567084424
        },
        "id": 142
    },
    {
        "name": "山东威海刘公岛景区",
        "province": "山东省",
        "year": "2011",
        "location": {
            "lng": 122.19726116385918,
            "lat": 37.51029433797555
        },
        "id": 143
    },
    {
        "name": "山东烟台龙口南山景区",
        "province": "山东省",
        "year": "2011",
        "location": {
            "lng": 120.48595278597801,
            "lat": 37.567253374128505
        },
        "id": 144
    },
    {
        "name": "枣庄市台儿庄古城景区",
        "province": "山东省",
        "year": "2013",
        "location": {
            "lng": 117.74955601098488,
            "lat": 34.563810962910296
        },
        "id": 145
    },
    {
        "name": "济南市天下第一泉景区",
        "province": "山东省",
        "year": "2013",
        "location": {
            "lng": 117.02179461055118,
            "lat": 36.66707307003322
        },
        "id": 146
    },
    {
        "name": "山东省沂蒙山旅游区",
        "province": "山东省",
        "year": "2013",
        "location": {
            "lng": 117.9843957984225,
            "lat": 35.567217328146356
        },
        "id": 147
    },
    {
        "name": "山东省潍坊市青州古城旅游区",
        "province": "山东省",
        "year": "2017",
        "location": {
            "lng": 118.48575169168228,
            "lat": 36.68661601591446
        },
        "id": 148
    },
    {
        "name": "山东省威海市华夏城旅游景区",
        "province": "山东省",
        "year": "2017",
        "location": {
            "lng": 122.12216596729431,
            "lat": 37.4299840004974
        },
        "id": 149
    },
    {
        "name": "山东省东营市黄河口生态旅游区",
        "province": "山东省",
        "year": "2019",
        "location": {
            "lng": 119.08277424717707,
            "lat": 37.809775687145574
        },
        "id": 150
    },
    {
        "name": "山东省临沂市萤火虫水洞·地下大峡谷旅游区",
        "province": "山东省",
        "year": "2020",
        "location": {
            "lng": 118.54691300199023,
            "lat": 35.734443885514345
        },
        "id": 151
    },
    {
        "name": "登封市嵩山少林景区",
        "province": "河南省",
        "year": "2007",
        "location": {
            "lng": 112.95882652115635,
            "lat": 34.52029282757685
        },
        "id": 152
    },
    {
        "name": "洛阳市龙门石窟景区",
        "province": "河南省",
        "year": "2007",
        "location": {
            "lng": 112.48221157859129,
            "lat": 34.55552689160902
        },
        "id": 153
    },
    {
        "name": "焦作市云台山－神农山·青天河景区",
        "province": "河南省",
        "year": "2007",
        "location": {
            "lng": 113.01755396251556,
            "lat": 35.34721692184511
        },
        "id": 154
    },
    {
        "name": "河南安阳殷墟景区",
        "province": "河南省",
        "year": "2011",
        "location": {
            "lng": 114.47673376511405,
            "lat": 36.088623815857204
        },
        "id": 155
    },
    {
        "name": "河南洛阳白云山景区",
        "province": "河南省",
        "year": "2011",
        "location": {
            "lng": 111.3997579305954,
            "lat": 33.91564164576797
        },
        "id": 156
    },
    {
        "name": "河南开封清明上河园",
        "province": "河南省",
        "year": "2011",
        "location": {
            "lng": 114.3470610291544,
            "lat": 34.81532094956191
        },
        "id": 157
    },
    {
        "name": "河南省平顶山市尧山-中原大佛景区",
        "province": "河南省",
        "year": "2011",
        "location": {
            "lng": 112.46664798647818,
            "lat": 33.771298106739366
        },
        "id": 158
    },
    {
        "name": "河南省洛阳栾川老君山·鸡冠洞旅游区",
        "province": "河南省",
        "year": "2012",
        "location": {
            "lng": 111.5770699636824,
            "lat": 33.789265085784926
        },
        "id": 159
    },
    {
        "name": "洛阳市龙潭大峡谷景区",
        "province": "河南省",
        "year": "2013",
        "location": {
            "lng": 112.00055471669039,
            "lat": 34.96659328679112
        },
        "id": 160
    },
    {
        "name": "南阳市西峡伏牛山老界岭·恐龙遗址园旅游区",
        "province": "河南省",
        "year": "2014",
        "location": {
            "lng": 111.6930118304304,
            "lat": 33.23625536021647
        },
        "id": 161
    },
    {
        "name": "驻马店市嵖岈山旅游景区",
        "province": "河南省",
        "year": "2015",
        "location": {
            "lng": 113.7365962300083,
            "lat": 33.1356553073643
        },
        "id": 162
    },
    {
        "name": "河南省红旗渠·太行大峡谷",
        "province": "河南省",
        "year": "2016",
        "location": {
            "lng": 113.7343001611248,
            "lat": 35.98174803773333
        },
        "id": 163
    },
    {
        "name": "河南省永城市芒砀山旅游景区",
        "province": "河南省",
        "year": "2017",
        "location": {
            "lng": 116.51775997026066,
            "lat": 34.17571002073302
        },
        "id": 164
    },
    {
        "name": "河南省新乡市八里沟景区",
        "province": "河南省",
        "year": "2019",
        "location": {
            "lng": 113.54908941751911,
            "lat": 35.59375766246887
        },
        "id": 165
    },
    {
        "name": "武汉市黄鹤楼公园",
        "province": "湖北省",
        "year": "2007",
        "location": {
            "lng": 114.31219401942901,
            "lat": 30.549264877801676
        },
        "id": 166
    },
    {
        "name": "宜昌市三峡大坝-屈原故里旅游区",
        "province": "湖北省",
        "year": "2007",
        "location": {
            "lng": 110.83621180789656,
            "lat": 30.935663435145823
        },
        "id": 167
    },
    {
        "name": "湖北省宜昌市三峡人家风景区",
        "province": "湖北省",
        "year": "2011",
        "location": {
            "lng": 111.16235698431827,
            "lat": 30.796552816240595
        },
        "id": 168
    },
    {
        "name": "湖北省十堰市武当山风景区",
        "province": "湖北省",
        "year": "2011",
        "location": {
            "lng": 111.06998620499935,
            "lat": 32.46710268402027
        },
        "id": 169
    },
    {
        "name": "湖北省恩施州神农溪纤夫文化旅游区",
        "province": "湖北",
        "year": "2011",
        "location": {
            "lng": 110.33616474576482,
            "lat": 31.044339272571708
        },
        "id": 170
    },
    {
        "name": "湖北省神农架旅游区",
        "province": "湖北省",
        "year": "2012",
        "location": {
            "lng": 114.27786248961814,
            "lat": 30.598428657240692
        },
        "id": 171
    },
    {
        "name": "宜昌市长阳清江画廊景区",
        "province": "湖北省",
        "year": "2013",
        "location": {
            "lng": 111.24747789918835,
            "lat": 30.53483582856785
        },
        "id": 172
    },
    {
        "name": "武汉市东湖景区",
        "province": "湖北省",
        "year": "2013",
        "location": {
            "lng": 114.42000496368398,
            "lat": 30.557868805169253
        },
        "id": 173
    },
    {
        "name": "武汉市黄陂木兰文化生态旅游区",
        "province": "湖北省",
        "year": "2014",
        "location": {
            "lng": 114.40326450152224,
            "lat": 31.09916490615755
        },
        "id": 174
    },
    {
        "name": "恩施州恩施大峡谷景区",
        "province": "湖北省",
        "year": "2015",
        "location": {
            "lng": 109.17329299190467,
            "lat": 30.43177995433026
        },
        "id": 175
    },
    {
        "name": "湖北省咸宁市三国赤壁古战场景区",
        "province": "湖北省",
        "year": "2018",
        "location": {
            "lng": 113.63708794963375,
            "lat": 29.885144827299236
        },
        "id": 176
    },
    {
        "name": "湖北省襄阳市古隆中景区",
        "province": "湖北省",
        "year": "2019",
        "location": {
            "lng": 111.67624603605326,
            "lat": 32.384410096398575
        },
        "id": 177
    },
    {
        "name": "湖北省恩施州腾龙洞景区",
        "province": "湖北省",
        "year": "2020",
        "location": {
            "lng": 108.9925785368681,
            "lat": 30.335536902424547
        },
        "id": 178
    },
    {
        "name": "张家界武陵源—天门山旅游区",
        "province": "湖南省",
        "year": "2007",
        "location": {
            "lng": 110.50314086206315,
            "lat": 29.018318736447362
        },
        "id": 179
    },
    {
        "name": "衡阳市南岳衡山旅游区",
        "province": "湖南省",
        "year": "2007",
        "location": {
            "lng": 112.7220680286561,
            "lat": 27.275669982065825
        },
        "id": 180
    },
    {
        "name": "湖南省湘潭市韶山旅游区",
        "province": "湖南省",
        "year": "2011",
        "location": {
            "lng": 112.50046486281174,
            "lat": 27.913696039187318
        },
        "id": 181
    },
    {
        "name": "湖南省岳阳市岳阳楼—君山岛景区",
        "province": "湖南省",
        "year": "2011",
        "location": {
            "lng": 113.13648070435137,
            "lat": 29.377995036881128
        },
        "id": 182
    },
    {
        "name": "湖南省长沙市岳麓山·橘子洲旅游区",
        "province": "湖南省",
        "year": "2012",
        "location": {
            "lng": 112.94394454886705,
            "lat": 28.19073964056441
        },
        "id": 183
    },
    {
        "name": "长沙市花明楼景区",
        "province": "湖南省",
        "year": "2013",
        "location": {
            "lng": 112.65050964056876,
            "lat": 28.044197245886174
        },
        "id": 184
    },
    {
        "name": "郴州市东江湖旅游区",
        "province": "湖南省",
        "year": "2015",
        "location": {
            "lng": 113.31757397476169,
            "lat": 25.87195901400015
        },
        "id": 185
    },
    {
        "name": "湖南省邵阳市崀山景区",
        "province": "湖南省",
        "year": "2016",
        "location": {
            "lng": 110.80219251539127,
            "lat": 26.35997716408989
        },
        "id": 186
    },
    {
        "name": "湖南省株洲市炎帝陵景区",
        "province": "湖南省",
        "year": "2019",
        "location": {
            "lng": 113.67890667619538,
            "lat": 26.428598688002698
        },
        "id": 187
    },
    {
        "name": "湖南省常德市桃花源旅游区",
        "province": "湖南省",
        "year": "2020",
        "location": {
            "lng": 111.44839810581885,
            "lat": 28.796464660292465
        },
        "id": 188
    },
    {
        "name": "湖南省湘西土家族苗族自治州矮寨·十八洞·德夯大峡谷景区",
        "province": "湖南省",
        "year": "",
        "location": {
            "lng": 109.59369896914785,
            "lat": 28.345107007832574
        },
        "id": 189
    },
    {
        "name": "广州市长隆旅游度假区",
        "province": "广东省",
        "year": "2007",
        "location": {
            "lng": 113.33183897642488,
            "lat": 23.00580901761349
        },
        "id": 190
    },
    {
        "name": "深圳华侨城旅游度假区",
        "province": "广东省",
        "year": "2007",
        "location": {
            "lng": 113.99116997814606,
            "lat": 22.54440587096458
        },
        "id": 191
    },
    {
        "name": "广东省广州市白云山风景区",
        "province": "广东省",
        "year": "2011",
        "location": {
            "lng": 113.30261817616156,
            "lat": 23.166696352891265
        },
        "id": 192
    },
    {
        "name": "梅州市雁南飞茶田景区",
        "province": "广东省",
        "year": "2011",
        "location": {
            "lng": 116.37145417167093,
            "lat": 24.392628705539206
        },
        "id": 193
    },
    {
        "name": "深圳市观澜湖休闲旅游区",
        "province": "广东省",
        "year": "2011",
        "location": {
            "lng": 114.00199276292669,
            "lat": 22.702218820883516
        },
        "id": 194
    },
    {
        "name": "广东省清远市连州地下河旅游景区",
        "province": "广东省",
        "year": "2011",
        "location": {
            "lng": 112.3364851208358,
            "lat": 25.008056830325085
        },
        "id": 195
    },
    {
        "name": "广东省韶关市丹霞山景区",
        "province": "广东省",
        "year": "2012",
        "location": {
            "lng": 113.72765834501965,
            "lat": 25.027559299600476
        },
        "id": 196
    },
    {
        "name": "佛山市西樵山景区",
        "province": "广东省",
        "year": "2013",
        "location": {
            "lng": 112.98373067955195,
            "lat": 22.930244752109363
        },
        "id": 197
    },
    {
        "name": "惠州市罗浮山景区",
        "province": "广东省",
        "year": "2013",
        "location": {
            "lng": 114.07535503830803,
            "lat": 23.268543049569377
        },
        "id": 198
    },
    {
        "name": "佛山市长鹿旅游休博园",
        "province": "广东省",
        "year": "2014",
        "location": {
            "lng": 113.29522934385278,
            "lat": 22.88440848153093
        },
        "id": 199
    },
    {
        "name": "阳江市海陵岛大角湾海上丝路旅游区",
        "province": "广东省",
        "year": "2015",
        "location": {
            "lng": 111.85383850608342,
            "lat": 21.575605753288848
        },
        "id": 200
    },
    {
        "name": "广东省中山市孙中山故里旅游区",
        "province": "广东省",
        "year": "2016",
        "location": {
            "lng": 113.53462134564046,
            "lat": 22.448705435992554
        },
        "id": 201
    },
    {
        "name": "广东省惠州市惠州西湖旅游景区",
        "province": "广东省",
        "year": "2018",
        "location": {
            "lng": 114.41364225087419,
            "lat": 23.090806326952737
        },
        "id": 202
    },
    {
        "name": "广东省肇庆市星湖旅游景区",
        "province": "广东省",
        "year": "2019",
        "location": {
            "lng": 112.47592037154017,
            "lat": 23.060584257527434
        },
        "id": 203
    },
    {
        "name": "广东省江门市开平碉楼文化旅游区",
        "province": "广东省",
        "year": "2020",
        "location": {
            "lng": 112.58602100667315,
            "lat": 22.378727963897738
        },
        "id": 204
    },
    {
        "name": "桂林市漓江景区",
        "province": "广西壮族自治区",
        "year": "2007",
        "location": {
            "lng": 110.43826218391523,
            "lat": 25.153165904763217
        },
        "id": 205
    },
    {
        "name": "桂林市乐满地度假世界",
        "province": "广西壮族自治区",
        "year": "2007",
        "location": {
            "lng": 110.30982794180461,
            "lat": 25.306438052871968
        },
        "id": 206
    },
    {
        "name": "桂林市独秀峰-王城景区",
        "province": "广西壮族自治区",
        "year": "2012",
        "location": {
            "lng": 110.30566654153102,
            "lat": 25.287726633881093
        },
        "id": 207
    },
    {
        "name": "南宁市青秀山旅游区",
        "province": "广西壮族自治区",
        "year": "2014",
        "location": {
            "lng": 108.35690736206065,
            "lat": 22.868949063025834
        },
        "id": 208
    },
    {
        "name": "广西自治区桂林市两江四湖·象山景区",
        "province": "广西壮族自治区",
        "year": "2017",
        "location": {
            "lng": 110.30247800612439,
            "lat": 25.274963015865143
        },
        "id": 209
    },
    {
        "name": "广西壮族自治区崇左市德天跨国瀑布景区",
        "province": "广西壮族自治区",
        "year": "2018",
        "location": {
            "lng": 106.73501128466762,
            "lat": 22.85876140451392
        },
        "id": 210
    },
    {
        "name": "广西壮族自治区百色市百色起义纪念园景区",
        "province": "广西壮族自治区",
        "year": "2019",
        "location": {
            "lng": 106.64622923589039,
            "lat": 23.907725161261162
        },
        "id": 211
    },
    {
        "name": "广西壮族自治区北海市涠洲岛南湾鳄鱼山景区",
        "province": "广西壮族自治区",
        "year": "2020",
        "location": {
            "lng": 109.10876113636249,
            "lat": 21.015524320533128
        },
        "id": 212
    },
    {
        "name": "三亚市南山文化旅游区",
        "province": "海南省",
        "year": "2007",
        "location": {
            "lng": 109.21533089185911,
            "lat": 18.30514623333508
        },
        "id": 213
    },
    {
        "name": "三亚市南山大小洞天旅游区",
        "province": "海南省",
        "year": "2007",
        "location": {
            "lng": 109.16347503851559,
            "lat": 18.308477982894228
        },
        "id": 214
    },
    {
        "name": "海南呀诺达雨林文化旅游区",
        "province": "海南省",
        "year": "2012",
        "location": {
            "lng": 100.62662114445924,
            "lat": 36.2921024798988
        },
        "id": 215
    },
    {
        "name": "分界洲岛旅游区",
        "province": "海南省",
        "year": "2013",
        "location": {
            "lng": 111.3526998232615,
            "lat": 22.53384750974076
        },
        "id": 216
    },
    {
        "name": "海南槟榔谷黎苗文化旅游区",
        "province": "海南省",
        "year": "2015",
        "location": {
            "lng": 109.66791804832434,
            "lat": 18.403821461844263
        },
        "id": 217
    },
    {
        "name": "海南省三亚市蜈支洲岛旅游区",
        "province": "海南省",
        "year": "2016",
        "location": {
            "lng": 109.7728602538985,
            "lat": 18.316393759836597
        },
        "id": 218
    },
    {
        "name": "重庆大足石刻景区",
        "province": "重庆市",
        "year": "2007",
        "location": {
            "lng": 105.80263825717616,
            "lat": 29.75521483430416
        },
        "id": 219
    },
    {
        "name": "重庆巫山小三峡-小小三峡",
        "province": "重庆市",
        "year": "2007",
        "location": {
            "lng": 109.89476203173263,
            "lat": 31.086326857059433
        },
        "id": 220
    },
    {
        "name": "武隆喀斯特旅游区(天生三桥.仙女山.芙蓉洞)",
        "province": "重庆市",
        "year": "2011",
        "location": {
            "lng": 107.81770792394629,
            "lat": 29.439179153683178
        },
        "id": 221
    },
    {
        "name": "酉阳桃花源旅游景区",
        "province": "重庆市",
        "year": "2012",
        "location": {
            "lng": 108.7780690968807,
            "lat": 28.854118617691185
        },
        "id": 222
    },
    {
        "name": "重庆市万盛经开区黑山谷景区",
        "province": "重庆市",
        "year": "2012",
        "location": {
            "lng": 106.9331239410949,
            "lat": 28.971403562302253
        },
        "id": 223
    },
    {
        "name": "重庆市南川金佛山",
        "province": "重庆市",
        "year": "2013",
        "location": {
            "lng": 107.11074597935472,
            "lat": 29.158192631901777
        },
        "id": 224
    },
    {
        "name": "江津四面山景区",
        "province": "重庆市",
        "year": "2015",
        "location": {
            "lng": 106.39745942499171,
            "lat": 28.622100619711965
        },
        "id": 225
    },
    {
        "name": "重庆市云阳龙缸景区",
        "province": "重庆市",
        "year": "2017",
        "location": {
            "lng": 109.01111408293043,
            "lat": 30.67120356868903
        },
        "id": 226
    },
    {
        "name": "重庆市彭水县阿依河景区",
        "province": "重庆市",
        "year": "2019",
        "location": {
            "lng": 108.12698894143539,
            "lat": 29.157019030294414
        },
        "id": 227
    },
    {
        "name": "重庆市黔江区濯水景区",
        "province": "重庆市",
        "year": "2020",
        "location": {
            "lng": 108.77890110744377,
            "lat": 29.300181386184097
        },
        "id": 228
    },
    {
        "name": "成都市青城山--都江堰旅游景区",
        "province": "四川省",
        "year": "2007",
        "location": {
            "lng": 103.60137705272497,
            "lat": 30.905449192960912
        },
        "id": 229
    },
    {
        "name": "乐山市峨眉山景区",
        "province": "四川省",
        "year": "2007",
        "location": {
            "lng": 103.35630397284076,
            "lat": 29.573826990364054
        },
        "id": 230
    },
    {
        "name": "阿坝藏族羌族自治州九寨沟旅游景区",
        "province": "四川省",
        "year": "2007",
        "location": {
            "lng": 102.23141546175019,
            "lat": 31.905511577266523
        },
        "id": 231
    },
    {
        "name": "乐山市乐山大佛景区",
        "province": "四川省",
        "year": "2011",
        "location": {
            "lng": 103.78097862118697,
            "lat": 29.544461728088525
        },
        "id": 232
    },
    {
        "name": "四川省阿坝州黄龙景区",
        "province": "四川省",
        "year": "2012",
        "location": {
            "lng": 103.83965783491062,
            "lat": 32.74897367593438
        },
        "id": 233
    },
    {
        "name": "绵阳市北川羌城旅游区",
        "province": "四川省",
        "year": "2013",
        "location": {
            "lng": 104.47043197417908,
            "lat": 31.61341293223517
        },
        "id": 234
    },
    {
        "name": "阿坝州汶川特别旅游区",
        "province": "四川省",
        "year": "2013",
        "location": {
            "lng": 103.4949614819107,
            "lat": 31.061131170208284
        },
        "id": 235
    },
    {
        "name": "南充市阆中古城旅游区",
        "province": "四川省",
        "year": "2013",
        "location": {
            "lng": 105.97767049274752,
            "lat": 31.580860354469994
        },
        "id": 236
    },
    {
        "name": "广安市邓小平故里旅游区",
        "province": "四川省",
        "year": "2013",
        "location": {
            "lng": 106.64327939257355,
            "lat": 30.52526671846857
        },
        "id": 237
    },
    {
        "name": "广元市剑门蜀道剑门关旅游区",
        "province": "四川省",
        "year": "2015",
        "location": {
            "lng": 105.58372804355454,
            "lat": 32.23016012312191
        },
        "id": 238
    },
    {
        "name": "四川省南充市仪陇朱德故里景区",
        "province": "四川省",
        "year": "2016",
        "location": {
            "lng": 106.60835291502339,
            "lat": 31.468247790934836
        },
        "id": 239
    },
    {
        "name": "四川省甘孜州海螺沟景区",
        "province": "四川省",
        "year": "2017",
        "location": {
            "lng": 105.26238637618633,
            "lat": 31.408095393636625
        },
        "id": 240
    },
    {
        "name": "四川省雅安市碧峰峡旅游景区",
        "province": "四川省",
        "year": "2019",
        "location": {
            "lng": 102.9970366665463,
            "lat": 30.078427549351535
        },
        "id": 241
    },
    {
        "name": "四川省巴中市光雾山旅游景区",
        "province": "四川省",
        "year": "2020",
        "location": {
            "lng": 106.80715996167534,
            "lat": 32.6948121324277
        },
        "id": 242
    },
    {
        "name": "四川省甘孜州稻城亚丁旅游景区",
        "province": "四川省",
        "year": "2020",
        "location": {
            "lng": 105.15108460489668,
            "lat": 28.1825540380812
        },
        "id": 243
    },
    {
        "name": "安顺市黄果树大瀑布景区",
        "province": "贵州省",
        "year": "2007",
        "location": {
            "lng": 105.68031797219497,
            "lat": 25.98294197884332
        },
        "id": 244
    },
    {
        "name": "安顺市龙宫景区",
        "province": "贵州省",
        "year": "2007",
        "location": {
            "lng": 105.89183613157378,
            "lat": 26.112361456093012
        },
        "id": 245
    },
    {
        "name": "毕节市百里杜鹃景区",
        "province": "贵州省",
        "year": "2013",
        "location": {
            "lng": 105.94505471437549,
            "lat": 27.185741366858252
        },
        "id": 246
    },
    {
        "name": "黔南州荔波樟江景区",
        "province": "贵州省",
        "year": "2015",
        "location": {
            "lng": 107.75378504286068,
            "lat": 25.256021041637023
        },
        "id": 247
    },
    {
        "name": "贵州省贵阳市花溪青岩古镇景区",
        "province": "贵州省",
        "year": "2017",
        "location": {
            "lng": 106.69262941038195,
            "lat": 26.337982497888117
        },
        "id": 248
    },
    {
        "name": "贵州省铜仁市梵净山旅游区",
        "province": "贵州省",
        "year": "2018",
        "location": {
            "lng": 109.20152115142822,
            "lat": 27.744064555984334
        },
        "id": 249
    },
    {
        "name": "贵州省黔东南州镇远古城旅游景区",
        "province": "贵州省",
        "year": "2019",
        "location": {
            "lng": 108.43100804457094,
            "lat": 27.055749990979887
        },
        "id": 250
    },
    {
        "name": "贵州省遵义市赤水丹霞旅游区",
        "province": "贵州省",
        "year": "2020",
        "location": {
            "lng": 105.95489205801202,
            "lat": 28.406316598447
        },
        "id": 251
    },
    {
        "name": "昆明市石林风景区",
        "province": "云南省",
        "year": "2007",
        "location": {
            "lng": 103.33005395872851,
            "lat": 24.817625021386153
        },
        "id": 252
    },
    {
        "name": "丽江市玉龙雪山景区",
        "province": "云南省",
        "year": "2007",
        "location": {
            "lng": 100.21047913049895,
            "lat": 27.140137806851122
        },
        "id": 253
    },
    {
        "name": "丽江市丽江古城景区",
        "province": "云南省",
        "year": "2011",
        "location": {
            "lng": 100.2324803392115,
            "lat": 26.883161684001312
        },
        "id": 254
    },
    {
        "name": "大理市崇圣寺三塔文化旅游区",
        "province": "云南省",
        "year": "2011",
        "location": {
            "lng": 100.15377952401668,
            "lat": 25.71122744999469
        },
        "id": 255
    },
    {
        "name": "中国科学院西双版纳热带植物园",
        "province": "云南省",
        "year": "2011",
        "location": {
            "lng": 101.2629510232767,
            "lat": 21.93160413701705
        },
        "id": 256
    },
    {
        "name": "迪庆州香格里拉普达措景区",
        "province": "云南省",
        "year": "2012",
        "location": {
            "lng": 99.95103376709265,
            "lat": 27.864875600777214
        },
        "id": 257
    },
    {
        "name": "云南省昆明市昆明世博园景区",
        "province": "云南省",
        "year": "2016",
        "location": {
            "lng": 102.76514331014661,
            "lat": 25.082571831038578
        },
        "id": 258
    },
    {
        "name": "云南省保山市腾冲火山热海旅游区",
        "province": "云南省",
        "year": "2016",
        "location": {
            "lng": 98.44714898281194,
            "lat": 24.953076614408456
        },
        "id": 259
    },
    {
        "name": "云南省文山州普者黑旅游景区",
        "province": "云南省",
        "year": "2020",
        "location": {
            "lng": 104.13871504634321,
            "lat": 24.121619981323693
        },
        "id": 260
    },
    {
        "name": "拉萨布达拉宫景区",
        "province": "西藏自治区",
        "year": "2013",
        "location": {
            "lng": 91.12535963964342,
            "lat": 29.657681963552776
        },
        "id": 261
    },
    {
        "name": "拉萨市大昭寺",
        "province": "西藏自治区",
        "year": "2013",
        "location": {
            "lng": 91.1399632452078,
            "lat": 29.656003817525743
        },
        "id": 262
    },
    {
        "name": "林芝巴松措景区",
        "province": "西藏自治区",
        "year": "2017",
        "location": {
            "lng": 93.97433898528924,
            "lat": 30.014093273597034
        },
        "id": 263
    },
    {
        "name": "日喀则扎什伦布寺景区",
        "province": "西藏自治区",
        "year": "2017",
        "location": {
            "lng": 88.87854538697736,
            "lat": 29.271020676967794
        },
        "id": 264
    },
    {
        "name": "林芝市雅鲁藏布大峡谷旅游景区",
        "province": "西藏自治区",
        "year": "2020",
        "location": {
            "lng": 94.94443302079847,
            "lat": 29.619022987793
        },
        "id": 265
    },
    {
        "name": "西安市秦始皇兵马俑博物馆",
        "province": "陕西省",
        "year": "2007",
        "location": {
            "lng": 109.28509995839025,
            "lat": 34.38941701203181
        },
        "id": 266
    },
    {
        "name": "西安市华清池景区",
        "province": "陕西省",
        "year": "2007",
        "location": {
            "lng": 109.2200872530388,
            "lat": 34.370371877983374
        },
        "id": 267
    },
    {
        "name": "延安市黄帝陵景区",
        "province": "陕西省",
        "year": "2007",
        "location": {
            "lng": 109.27632018982736,
            "lat": 35.59133540546256
        },
        "id": 268
    },
    {
        "name": "陕西西安大雁塔·大唐芙蓉园景区",
        "province": "陕西省",
        "year": "2011",
        "location": {
            "lng": 108.98072440752787,
            "lat": 34.218948697674456
        },
        "id": 269
    },
    {
        "name": "陕西渭南华山景区",
        "province": "陕西省",
        "year": "2011",
        "location": {
            "lng": 110.07302797544067,
            "lat": 34.497646508775304
        },
        "id": 270
    },
    {
        "name": "宝鸡市法门寺佛文化景区",
        "province": "陕西省",
        "year": "2014",
        "location": {
            "lng": 107.90811798453237,
            "lat": 34.44076299842624
        },
        "id": 271
    },
    {
        "name": "商洛市金丝峡景区",
        "province": "陕西省",
        "year": "2015",
        "location": {
            "lng": 110.57317097660086,
            "lat": 33.36025308941506
        },
        "id": 272
    },
    {
        "name": "陕西省宝鸡市太白山旅游景区",
        "province": "陕西省",
        "year": "2016",
        "location": {
            "lng": 107.91525996248944,
            "lat": 34.138888038826146
        },
        "id": 273
    },
    {
        "name": "陕西省西安市城墙·碑林历史文化景区",
        "province": "陕西省",
        "year": "2018",
        "location": {
            "lng": 108.95466636129443,
            "lat": 34.25790718124497
        },
        "id": 274
    },
    {
        "name": "陕西省延安市延安革命纪念地景区",
        "province": "陕西省",
        "year": "2019",
        "location": {
            "lng": 109.49531018501641,
            "lat": 36.582472478647844
        },
        "id": 275
    },
    {
        "name": "陕西省西安市大明宫旅游景区",
        "province": "陕西省",
        "year": "2020",
        "location": {
            "lng": 108.97031160937841,
            "lat": 34.31839770493336
        },
        "id": 276
    },
    {
        "name": "嘉峪关市嘉峪关文物景区",
        "province": "甘肃省",
        "year": "2007",
        "location": {
            "lng": 98.23337033698634,
            "lat": 39.80979500406795
        },
        "id": 277
    },
    {
        "name": "平凉市崆峒山风景名胜区",
        "province": "甘肃省",
        "year": "2007",
        "location": {
            "lng": 106.49234960417853,
            "lat": 35.542078092955535
        },
        "id": 278
    },
    {
        "name": "甘肃天水麦积山景区",
        "province": "甘肃省",
        "year": "2011",
        "location": {
            "lng": 106.00878896341032,
            "lat": 34.37089860137033
        },
        "id": 279
    },
    {
        "name": "敦煌鸣沙山月牙泉景区",
        "province": "甘肃省",
        "year": "2015",
        "location": {
            "lng": 94.68519364721128,
            "lat": 40.09489837750663
        },
        "id": 280
    },
    {
        "name": "甘肃省张掖市七彩丹霞景区",
        "province": "甘肃省",
        "year": "2019",
        "location": {
            "lng": 100.07573627860133,
            "lat": 38.96430998491349
        },
        "id": 281
    },
    {
        "name": "甘肃省临夏州炳灵寺世界文化遗产旅游区",
        "province": "甘肃省",
        "year": "2020",
        "location": {
            "lng": 103.0715046662041,
            "lat": 35.8217568273488
        },
        "id": 282
    },
    {
        "name": "青海省青海湖景区",
        "province": "青海省",
        "year": "2011",
        "location": {
            "lng": 100.91970032387253,
            "lat": 36.970975859248696
        },
        "id": 283
    },
    {
        "name": "西宁市塔尔寺景区",
        "province": "青海省",
        "year": "2012",
        "location": {
            "lng": 101.57454123555044,
            "lat": 36.4935971693723
        },
        "id": 284
    },
    {
        "name": "青海省海东市互助土族故土园景区",
        "province": "青海省",
        "year": "2017",
        "location": {
            "lng": 101.94348402206184,
            "lat": 36.8398808931375
        },
        "id": 285
    },
    {
        "name": "青海省海北州阿咪东索景区",
        "province": "青海省",
        "year": "2020",
        "location": {
            "lng": 100.32725490444271,
            "lat": 38.10521808193717
        },
        "id": 286
    },
    {
        "name": "石嘴山市沙湖旅游景区",
        "province": "宁夏回族自治区",
        "year": "2007",
        "location": {
            "lng": 106.36821168778806,
            "lat": 38.80752326180209
        },
        "id": 287
    },
    {
        "name": "中卫市沙坡头旅游景区",
        "province": "宁夏回族自治区",
        "year": "2007",
        "location": {
            "lng": 105.00851059668675,
            "lat": 37.483402409782265
        },
        "id": 288
    },
    {
        "name": "宁夏银川镇北堡西部影视城",
        "province": "宁夏回族自治区",
        "year": "2011",
        "location": {
            "lng": 106.07799495888231,
            "lat": 38.62169012646215
        },
        "id": 289
    },
    {
        "name": "银川市灵武水洞沟旅游区",
        "province": "宁夏回族自治区",
        "year": "2015",
        "location": {
            "lng": 106.51545249477579,
            "lat": 38.29609762853936
        },
        "id": 290
    },
    {
        "name": "新疆天山天池风景名胜区",
        "province": "新疆维吾尔自治区",
        "year": "2007",
        "location": {
            "lng": 88.13572839264405,
            "lat": 43.887382211058544
        },
        "id": 291
    },
    {
        "name": "吐鲁番市葡萄沟风景区",
        "province": "新疆维吾尔自治区",
        "year": "2007",
        "location": {
            "lng": 89.24962641654176,
            "lat": 43.005375057063276
        },
        "id": 292
    },
    {
        "name": "阿勒泰地区喀纳斯景区",
        "province": "新疆维吾尔自治区",
        "year": "2007",
        "location": {
            "lng": 87.13837696482021,
            "lat": 48.51353481751963
        },
        "id": 293
    },
    {
        "name": "新疆伊犁那拉提旅游风景区",
        "province": "新疆维吾尔自治区",
        "year": "2011",
        "location": {
            "lng": 84.0328211012923,
            "lat": 43.3255523398443
        },
        "id": 294
    },
    {
        "name": "阿勒泰地区富蕴可可托海景区",
        "province": "新疆维吾尔自治区",
        "year": "2012",
        "location": {
            "lng": 89.88824796315804,
            "lat": 47.22823136274126
        },
        "id": 295
    },
    {
        "name": "喀什地区泽普金湖杨景区",
        "province": "新疆维吾尔自治区",
        "year": "2013",
        "location": {
            "lng": 77.27191233646425,
            "lat": 38.20411710331667
        },
        "id": 296
    },
    {
        "name": "乌鲁木齐天山大峡谷景区",
        "province": "新疆维吾尔自治区",
        "year": "2013",
        "location": {
            "lng": 87.44826497738798,
            "lat": 43.499344098719
        },
        "id": 297
    },
    {
        "name": "巴音郭楞蒙古自治州博斯腾湖景区",
        "province": "新疆维吾尔自治区",
        "year": "2014",
        "location": {
            "lng": 86.78512803466433,
            "lat": 41.751477864488486
        },
        "id": 298
    },
    {
        "name": "喀什地区喀什噶尔老城景区",
        "province": "新疆维吾尔自治区",
        "year": "2015",
        "location": {
            "lng": 75.99537295591576,
            "lat": 39.47866612733505
        },
        "id": 299
    },
    {
        "name": "新疆自治区伊犁州喀拉峻景区",
        "province": "新疆维吾尔自治区",
        "year": "2016",
        "location": {
            "lng": 81.28102701053592,
            "lat": 43.93849011501018
        },
        "id": 300
    },
    {
        "name": "新疆自治区巴音州和静巴音布鲁克景区",
        "province": "新疆维吾尔自治区",
        "year": "2016",
        "location": {
            "lng": 80.95882377835308,
            "lat": 43.831774451754136
        },
        "id": 301
    },
    {
        "name": "新疆维吾尔自治区喀什地区帕米尔旅游区",
        "province": "新疆维吾尔自治区",
        "year": "2019",
        "location": {
            "lng": 75.2088499785135,
            "lat": 37.80110900232031
        },
        "id": 302
    },
    {
        "name": "新疆维吾尔自治区克拉玛依市世界魔鬼城景区",
        "province": "新疆维吾尔自治区",
        "year": "2020",
        "location": {
            "lng": 85.75411099089546,
            "lat": 46.136383911366075
        },
        "id": 303
    },
    {
        "name": "新疆维吾尔自治区博尔塔拉蒙古自治州赛里木湖景区",
        "province": "新疆维吾尔自治区",
        "year": "2021",
        "location": {
            "lng": 81.19439361867869,
            "lat": 44.500901226936676
        },
        "id": 304
    },
    {
        "name": "新疆生产建设兵团第十师白沙湖景区",
        "province": "新疆生产建设兵团",
        "year": "2017",
        "location": {
            "lng": 126.63231627901526,
            "lat": 45.612023282610615
        },
        "id": 305
    },
    {
        "name": "新疆生产建设兵团阿拉尔市塔克拉玛干·三五九旅文化旅游区",
        "province": "新疆生产建设兵团",
        "year": "2021",
        "location": {
            "lng": 81.28735422539545,
            "lat": 40.55326389470602
        },
        "id": 306
    },
    {
        "name": "浙江省台州市台州府城文化旅游区",
        "province": "浙江省",
        "year": "2022",
        "location": {
            "lng": 121.12378983521947,
            "lat": 28.852449894607016
        },
        "id": 307
    },
    {
        "name": "江西省赣州市三百山景区",
        "province": "江西省",
        "year": "2022",
        "location": {
            "lng": 115.43184271049097,
            "lat": 25.00450451728676
        },
        "id": 308
    },
    {
        "name": "山东省济宁市微山湖旅游区",
        "province": "山东省",
        "year": "2022",
        "location": {
            "lng": 117.28291001381679,
            "lat": 34.68965196690944
        },
        "id": 309
    },
    {
        "name": "河南省信阳市鸡公山景区",
        "province": "河南省",
        "year": "2022",
        "location": {
            "lng": 114.0751540123058,
            "lat": 32.13705504252041
        },
        "id": 310
    },
    {
        "name": "湖北省宜昌市三峡大瀑布景区",
        "province": "湖北省",
        "year": "2022",
        "location": {
            "lng": 111.3290261632147,
            "lat": 30.93093464073496
        },
        "id": 311
    },
    {
        "name": "广西壮族自治区贺州市黄姚古镇景区",
        "province": "广西壮族自治区",
        "year": "2022",
        "location": {
            "lng": 111.21324013864727,
            "lat": 24.253637410639147
        },
        "id": 312
    },
    {
        "name": "重庆市奉节县白帝城·瞿塘峡景区",
        "province": "重庆市",
        "year": "2022",
        "location": {
            "lng": 109.58667064012823,
            "lat": 31.044485307351366
        },
        "id": 313
    },
    {
        "name": "四川省成都市安仁古镇景区",
        "province": "四川省",
        "year": "2022",
        "location": {
            "lng": 103.63056986135808,
            "lat": 30.51078903187185
        },
        "id": 314
    },
    {
        "name": "贵州省毕节市织金洞景区",
        "province": "贵州省",
        "year": "2022",
        "location": {
            "lng": 105.90836180888265,
            "lat": 26.774256929773696
        },
        "id": 315
    },
    {
        "name": "甘肃省陇南市官鹅沟景区",
        "province": "甘肃",
        "year": "2022",
        "location": {
            "lng": 104.39914999467351,
            "lat": 34.01635706867377
        },
        "id": 316
    },
    {
        "name": "新疆维吾尔自治区昌吉回族自治州江布拉克景区",
        "province": "新疆维吾尔自治区",
        "year": "2022",
        "location": {
            "lng": 89.69423329649749,
            "lat": 43.557071635039435
        },
        "id": 317
    },
    {
        "name": "黄河壶口瀑布旅游区（陕西省延安市·山西省临汾市）",
        "province": "陕西省、山西省",
        "year": "2022",
        "location": {
            "lng": 111.52553022403073,
            "lat": 36.093741895419726
        },
        "id": 318
    }
]